{
  "schema": {
    "fields": [
      { "name": "index", "type": "integer" },
      { "name": "id", "type": "integer" },
      { "name": "short_name", "type": "string" },
      { "name": "long_name", "type": "string" },
      { "name": "variant_id", "type": "string" },
      { "name": "latitude", "type": "number" },
      { "name": "longitude", "type": "number" },
      { "name": "address", "type": "string" },
      { "name": "wikidata_id", "type": "string" }
    ],
    "primaryKey": ["index"],
    "pandas_version": "1.4.0"
  },
  "data": [
    {
      "index": 0,
      "id": 1,
      "short_name": "ABERDEEN",
      "long_name": "ABERDEEN",
      "variant_id": null,
      "latitude": 39.458448,
      "longitude": -76.127276,
      "address": "Aberdeen Proving Ground, MD, 21005",
      "wikidata_id": null
    },
    {
      "index": 1,
      "id": 2,
      "short_name": "ACCAT",
      "long_name": "ACCAT",
      "variant_id": null,
      "latitude": 32.72793,
      "longitude": -117.15529,
      "address": "271 Catalina Boulevard, San Diego, CA, 92152",
      "wikidata_id": null
    },
    {
      "index": 2,
      "id": 3,
      "short_name": "AFGL",
      "long_name": "AFGL",
      "variant_id": null,
      "latitude": 42.449709,
      "longitude": -71.281482,
      "address": "Hanscom Air Force Base, MA, 1731",
      "wikidata_id": null
    },
    {
      "index": 3,
      "id": 4,
      "short_name": "AFGWC",
      "long_name": "AFGWC",
      "variant_id": null,
      "latitude": 41.12024,
      "longitude": -95.92095,
      "address": "Offutt Air Force Base, NE, 68113",
      "wikidata_id": null
    },
    {
      "index": 4,
      "id": 5,
      "short_name": "AFWL",
      "long_name": "AFWL",
      "variant_id": null,
      "latitude": 35.128683,
      "longitude": -106.579128,
      "address": "Albuquerque, NM, 87117",
      "wikidata_id": null
    },
    {
      "index": 5,
      "id": 6,
      "short_name": "AMES",
      "long_name": "AMES",
      "variant_id": null,
      "latitude": 36.531544,
      "longitude": -119.586168,
      "address": "Moffett Field, CA, 94035",
      "wikidata_id": "Q181052"
    },
    {
      "index": 6,
      "id": 7,
      "short_name": "AMES 15",
      "long_name": "AMES 15",
      "variant_id": null,
      "latitude": 36.531544,
      "longitude": -119.586168,
      "address": "Moffett Field, CA, 94035",
      "wikidata_id": null
    },
    {
      "index": 7,
      "id": 8,
      "short_name": "AMES 16",
      "long_name": "AMES 16",
      "variant_id": null,
      "latitude": 36.531544,
      "longitude": -119.586168,
      "address": "Moffett Field, CA, 94035",
      "wikidata_id": null
    },
    {
      "index": 8,
      "id": 9,
      "short_name": "ANDRW",
      "long_name": "ANDRW",
      "variant_id": null,
      "latitude": 38.82652,
      "longitude": -77.01712,
      "address": "Washington, D.C., 20334",
      "wikidata_id": null
    },
    {
      "index": 9,
      "id": 10,
      "short_name": "ANL",
      "long_name": "ANL",
      "variant_id": null,
      "latitude": 41.7059,
      "longitude": -88.007462,
      "address": "9700 South Cass Avenue, Argonne, IL, 60439",
      "wikidata_id": null
    },
    {
      "index": 10,
      "id": 11,
      "short_name": "ARGONNE",
      "long_name": "ARGONNE",
      "variant_id": null,
      "latitude": 41.7059,
      "longitude": -88.007462,
      "address": "9700 South Cass Avenue, Argonne, IL, 60439",
      "wikidata_id": null
    },
    {
      "index": 11,
      "id": 12,
      "short_name": "ARPA",
      "long_name": "ARPA",
      "variant_id": null,
      "latitude": 38.894376,
      "longitude": -77.07342,
      "address": "1400 Wilson Boulevard, Arlington, VA, 22209-2389",
      "wikidata_id": null
    },
    {
      "index": 12,
      "id": 13,
      "short_name": "BBN",
      "long_name": "BBN",
      "variant_id": null,
      "latitude": 42.389756,
      "longitude": -71.147518,
      "address": "10 Moulton Street, Cambridge, MA, 2238",
      "wikidata_id": "Q891612"
    },
    {
      "index": 13,
      "id": 14,
      "short_name": "BBN 30",
      "long_name": "BBN 30",
      "variant_id": null,
      "latitude": 42.389756,
      "longitude": -71.147518,
      "address": "10 Moulton Street, Cambridge, MA, 2238",
      "wikidata_id": null
    },
    {
      "index": 14,
      "id": 15,
      "short_name": "BBN 40",
      "long_name": "BBN 40",
      "variant_id": null,
      "latitude": 42.389756,
      "longitude": -71.147518,
      "address": "10 Moulton Street, Cambridge, MA, 2238",
      "wikidata_id": null
    },
    {
      "index": 15,
      "id": 16,
      "short_name": "BBN 63",
      "long_name": "BBN 63",
      "variant_id": null,
      "latitude": 42.389756,
      "longitude": -71.147518,
      "address": "10 Moulton Street, Cambridge, MA, 2238",
      "wikidata_id": null
    },
    {
      "index": 16,
      "id": 17,
      "short_name": "BBN 72",
      "long_name": "BBN 72",
      "variant_id": null,
      "latitude": 42.389756,
      "longitude": -71.147518,
      "address": "10 Moulton Street, Cambridge, MA, 2238",
      "wikidata_id": null
    },
    {
      "index": 17,
      "id": 18,
      "short_name": "BBN-10X",
      "long_name": "BBN-10X",
      "variant_id": null,
      "latitude": 42.389756,
      "longitude": -71.147518,
      "address": "10 Moulton Street, Cambridge, MA, 2238",
      "wikidata_id": null
    },
    {
      "index": 18,
      "id": 19,
      "short_name": "BELVOIR",
      "long_name": "BELVOIR",
      "variant_id": null,
      "latitude": 38.726817,
      "longitude": -77.152115,
      "address": "9820 Flager Road, Fort Belvoir, VA, 22060",
      "wikidata_id": "Q1375761"
    },
    {
      "index": 19,
      "id": 20,
      "short_name": "BERK",
      "long_name": "BERK",
      "variant_id": null,
      "latitude": 37.865832,
      "longitude": -122.297864,
      "address": "380 Cory Hall, Berkeley, CA, Berkeley",
      "wikidata_id": null
    },
    {
      "index": 20,
      "id": 21,
      "short_name": "BRAGG",
      "long_name": "BRAGG",
      "variant_id": null,
      "latitude": 35.139,
      "longitude": -79.00603,
      "address": "Fort Bragg, NC, 28307",
      "wikidata_id": null
    },
    {
      "index": 21,
      "id": 22,
      "short_name": "BROOKS",
      "long_name": "BROOKS",
      "variant_id": null,
      "latitude": 29.345382,
      "longitude": -98.443402,
      "address": "TX, 78235",
      "wikidata_id": null
    },
    {
      "index": 22,
      "id": 23,
      "short_name": "BURROUGHS",
      "long_name": "BURROUGHS",
      "variant_id": null,
      "latitude": 40.033043,
      "longitude": -75.513375,
      "address": "2476 Swedesford Rd, Malvern, PA, 19355",
      "wikidata_id": "Q7132126"
    },
    {
      "index": 23,
      "id": 24,
      "short_name": "CASE",
      "long_name": "CASE",
      "variant_id": null,
      "latitude": 41.506214,
      "longitude": -81.60269,
      "address": "10900 Euclid Avenue, Cleveland, OH, 44106",
      "wikidata_id": "Q1047060"
    },
    {
      "index": 24,
      "id": 25,
      "short_name": "CCA",
      "long_name": "CCA",
      "variant_id": null,
      "latitude": 42.363505,
      "longitude": -71.09282,
      "address": "575 Technology Square, Cambridge, MA, 2139",
      "wikidata_id": "Q65090984"
    },
    {
      "index": 25,
      "id": 26,
      "short_name": "CHINA",
      "long_name": "CHINA",
      "variant_id": null,
      "latitude": 35.637705,
      "longitude": -117.766858,
      "address": "China Lake, CA, 93555",
      "wikidata_id": null
    },
    {
      "index": 26,
      "id": 27,
      "short_name": "CIT",
      "long_name": "CIT",
      "variant_id": null,
      "latitude": 34.153289,
      "longitude": -118.148936,
      "address": "Pasadena, CA, 91125",
      "wikidata_id": null
    },
    {
      "index": 27,
      "id": 28,
      "short_name": "CMU",
      "long_name": "CMU",
      "variant_id": null,
      "latitude": 40.438324,
      "longitude": -79.946472,
      "address": "Schenley Park, Pittsburgh, PA, 15213",
      "wikidata_id": "Q190080"
    },
    {
      "index": 28,
      "id": 29,
      "short_name": "COLLINS",
      "long_name": "COLLINS",
      "variant_id": null,
      "latitude": 32.967701,
      "longitude": -96.717007,
      "address": "3200 East Renner Road, Richardson, TX, 75081",
      "wikidata_id": null
    },
    {
      "index": 29,
      "id": 30,
      "short_name": "CORADCOM",
      "long_name": "CORADCOM",
      "variant_id": null,
      "latitude": 40.43011,
      "longitude": -74.09847,
      "address": "Fort Monmouth, NJ, 7703",
      "wikidata_id": null
    },
    {
      "index": 30,
      "id": 31,
      "short_name": "DARCOM",
      "long_name": "DARCOM",
      "variant_id": null,
      "latitude": 37.456605,
      "longitude": -122.174686,
      "address": "333 Ravenswood Avenue, Menlo Park, CA, 94025",
      "wikidata_id": null
    },
    {
      "index": 31,
      "id": 32,
      "short_name": "DAVID",
      "long_name": "DAVID",
      "variant_id": null,
      "latitude": 38.98067,
      "longitude": -77.10026,
      "address": "Bethesda, MD, 20084",
      "wikidata_id": null
    },
    {
      "index": 32,
      "id": 33,
      "short_name": "DCEC",
      "long_name": "DCEC",
      "variant_id": null,
      "latitude": 38.946704,
      "longitude": -77.345382,
      "address": "1860 Wiehlo Avenue, Reston, VA, 22090",
      "wikidata_id": null
    },
    {
      "index": 33,
      "id": 34,
      "short_name": "DCEX",
      "long_name": "DCEX",
      "variant_id": null,
      "latitude": 38.946704,
      "longitude": -77.345382,
      "address": "1860 Wiehle Avenue, Reston, VA, 22090",
      "wikidata_id": null
    },
    {
      "index": 34,
      "id": 35,
      "short_name": "DEC",
      "long_name": "DEC",
      "variant_id": null,
      "latitude": 42.329807,
      "longitude": -71.57998,
      "address": "200 Forest Street, Marlborough, MA, 1752",
      "wikidata_id": null
    },
    {
      "index": 35,
      "id": 36,
      "short_name": "DOCB",
      "long_name": "DOCB",
      "variant_id": null,
      "latitude": 39.992076,
      "longitude": -105.265,
      "address": "325 Broadway, Boulder, CO, 80302",
      "wikidata_id": null
    },
    {
      "index": 36,
      "id": 37,
      "short_name": "DTI",
      "long_name": "DTI",
      "variant_id": null,
      "latitude": 40.109404,
      "longitude": -88.234796,
      "address": "302 East John Street, Champaign, IL, 61820",
      "wikidata_id": null
    },
    {
      "index": 37,
      "id": 38,
      "short_name": "EGLIN",
      "long_name": "EGLIN",
      "variant_id": null,
      "latitude": 30.45907,
      "longitude": -86.55026,
      "address": "Eglin Air Force Base, FL, 32542",
      "wikidata_id": null
    },
    {
      "index": 38,
      "id": 39,
      "short_name": "ETAC",
      "long_name": "ETAC",
      "variant_id": null,
      "latitude": 38.542964,
      "longitude": -89.852114,
      "address": "Scott AFB, IL, 62225",
      "wikidata_id": "Q4550117"
    },
    {
      "index": 39,
      "id": 40,
      "short_name": "FNWC",
      "long_name": "FNWC",
      "variant_id": null,
      "latitude": 34.048171,
      "longitude": -118.132541,
      "address": "Monterey, CA, 93940",
      "wikidata_id": null
    },
    {
      "index": 40,
      "id": 41,
      "short_name": "GUNTER",
      "long_name": "GUNTER",
      "variant_id": null,
      "latitude": 32.407402,
      "longitude": -86.254466,
      "address": "Gunter Air Force Station, AL, 36114",
      "wikidata_id": null
    },
    {
      "index": 41,
      "id": 42,
      "short_name": "GWC",
      "long_name": "GWC",
      "variant_id": null,
      "latitude": 41.12024,
      "longitude": -95.92095,
      "address": "Offutt Air Force Base, NE, 68113",
      "wikidata_id": "Q4697973"
    },
    {
      "index": 42,
      "id": 43,
      "short_name": "HARVARD",
      "long_name": "HARVARD",
      "variant_id": null,
      "latitude": 42.38036,
      "longitude": -71.115987,
      "address": "33 Orford Street, Cambridge, MA, 2138",
      "wikidata_id": "Q13371"
    },
    {
      "index": 43,
      "id": 44,
      "short_name": "HAWAII",
      "long_name": "HAWAII",
      "variant_id": null,
      "latitude": 21.3872,
      "longitude": 157.9038,
      "address": "P.O. Box 10, Camp H. M. Smith, HI, 96861",
      "wikidata_id": null
    },
    {
      "index": 44,
      "id": 45,
      "short_name": "ILLINOIS",
      "long_name": "ILLINOIS",
      "variant_id": null,
      "latitude": 40.099844,
      "longitude": -88.195524,
      "address": "Urbana, IL, 61801",
      "wikidata_id": "Q457281"
    },
    {
      "index": 45,
      "id": 46,
      "short_name": "ISI 22",
      "long_name": "ISI 22",
      "variant_id": null,
      "latitude": 33.975996,
      "longitude": -118.448356,
      "address": "4676 Admiralty Way, Marina Del Rey, CA, 90291",
      "wikidata_id": null
    },
    {
      "index": 46,
      "id": 47,
      "short_name": "ISI 27",
      "long_name": "ISI 27",
      "variant_id": null,
      "latitude": 33.975996,
      "longitude": -118.448356,
      "address": "4676 Admiralty Way, Marina Del Rey, CA, 90291",
      "wikidata_id": null
    },
    {
      "index": 47,
      "id": 48,
      "short_name": "ISI 52",
      "long_name": "ISI 52",
      "variant_id": null,
      "latitude": 33.975996,
      "longitude": -118.448356,
      "address": "4676 Admiralty Way, Marina Del Rey, CA, 90291",
      "wikidata_id": null
    },
    {
      "index": 48,
      "id": 49,
      "short_name": "JOHNS",
      "long_name": "JOHNS",
      "variant_id": null,
      "latitude": 39.093074,
      "longitude": -76.869106,
      "address": "Johns Hopkins Road, Laurel, MD, 20810",
      "wikidata_id": null
    },
    {
      "index": 49,
      "id": 50,
      "short_name": "KIRTLAND",
      "long_name": "KIRTLAND",
      "variant_id": null,
      "latitude": 35.128683,
      "longitude": -106.579128,
      "address": "Albuquerque, NM, 87117",
      "wikidata_id": "Q577946"
    },
    {
      "index": 50,
      "id": 51,
      "short_name": "LBL",
      "long_name": "LBL",
      "variant_id": null,
      "latitude": 37.865832,
      "longitude": -122.297864,
      "address": "1 Cyclotron Road, Berkeley, CA, 94720",
      "wikidata_id": "Q1133630"
    },
    {
      "index": 51,
      "id": 52,
      "short_name": "LINCOLN",
      "long_name": "LINCOLN",
      "variant_id": null,
      "latitude": 42.44564,
      "longitude": -71.23071,
      "address": "P.O. Box 73, Lexington, MA, 2173",
      "wikidata_id": "Q3138607"
    },
    {
      "index": 52,
      "id": 53,
      "short_name": "LLL",
      "long_name": "LLL",
      "variant_id": null,
      "latitude": 37.6781,
      "longitude": -121.784928,
      "address": "P.O. Box 808, Livermore, CA, 94550",
      "wikidata_id": "Q519826"
    },
    {
      "index": 53,
      "id": 54,
      "short_name": "LONDON",
      "long_name": "LONDON",
      "variant_id": null,
      "latitude": 51.509648,
      "longitude": -0.099076,
      "address": "London, WCIE 6BT, UK",
      "wikidata_id": "Q193196"
    },
    {
      "index": 54,
      "id": 55,
      "short_name": "MCCLELLAN",
      "long_name": "MCCLELLAN",
      "variant_id": null,
      "latitude": 38.65522,
      "longitude": -121.40598,
      "address": "McClellan Air Force Base, Sacramento, CA, 95652",
      "wikidata_id": "Q6800306"
    },
    {
      "index": 55,
      "id": 56,
      "short_name": "MIT",
      "long_name": "MIT",
      "variant_id": null,
      "latitude": 42.363373,
      "longitude": -71.090955,
      "address": "545 Technology Square, Cambridge, MA, 02139-1986",
      "wikidata_id": "Q49108"
    },
    {
      "index": 56,
      "id": 57,
      "short_name": "MIT 44",
      "long_name": "MIT 44",
      "variant_id": null,
      "latitude": 42.363373,
      "longitude": -71.090955,
      "address": "545 Technology Square, Cambridge, MA, 02139-1986",
      "wikidata_id": null
    },
    {
      "index": 57,
      "id": 58,
      "short_name": "MIT 6",
      "long_name": "MIT 6",
      "variant_id": null,
      "latitude": 42.363373,
      "longitude": -71.090955,
      "address": "545 Technology Square, Cambridge, MA, 02139-1986",
      "wikidata_id": null
    },
    {
      "index": 58,
      "id": 59,
      "short_name": "MIT 77",
      "long_name": "MIT 77",
      "variant_id": null,
      "latitude": 42.363373,
      "longitude": -71.090955,
      "address": "545 Technology Square, Cambridge, MA, 02139-1986",
      "wikidata_id": null
    },
    {
      "index": 59,
      "id": 60,
      "short_name": "MIT-IPC",
      "long_name": "MIT-IPC",
      "variant_id": null,
      "latitude": 42.363373,
      "longitude": -71.090955,
      "address": "545 Technology Square, Cambridge, MA, 02139-1986",
      "wikidata_id": null
    },
    {
      "index": 60,
      "id": 61,
      "short_name": "MIT-MAC",
      "long_name": "MIT-MAC",
      "variant_id": null,
      "latitude": 42.363373,
      "longitude": -71.090955,
      "address": "545 Technology Square, Cambridge, MA, 02139-1986",
      "wikidata_id": null
    },
    {
      "index": 61,
      "id": 62,
      "short_name": "MIT-TIP",
      "long_name": "MIT-TIP",
      "variant_id": null,
      "latitude": 42.363373,
      "longitude": -71.090955,
      "address": "545 Technology Square, Cambridge, MA, 02139-1986",
      "wikidata_id": null
    },
    {
      "index": 62,
      "id": 63,
      "short_name": "MITRE",
      "long_name": "MITRE",
      "variant_id": null,
      "latitude": 38.926735,
      "longitude": -77.207308,
      "address": "1820 Dolley Madison Boulevard, McLean, VA, 22102",
      "wikidata_id": "Q627039"
    },
    {
      "index": 63,
      "id": 64,
      "short_name": "MOFFETT",
      "long_name": "MOFFETT",
      "variant_id": null,
      "latitude": 36.531544,
      "longitude": -119.586168,
      "address": "Unit 1, Moffett Field, CA, 94035",
      "wikidata_id": "Q3565247"
    },
    {
      "index": 64,
      "id": 65,
      "short_name": "NBS",
      "long_name": "NBS",
      "variant_id": null,
      "latitude": 38.82652,
      "longitude": -77.01712,
      "address": "Washington, D.C, 20234",
      "wikidata_id": "Q176691"
    },
    {
      "index": 65,
      "id": 66,
      "short_name": "NCC",
      "long_name": "NCC",
      "variant_id": null,
      "latitude": 42.391082,
      "longitude": -71.147418,
      "address": "50 Moulton Street, Cambridge, MA, 2138",
      "wikidata_id": null
    },
    {
      "index": 66,
      "id": 67,
      "short_name": "NELC",
      "long_name": "NELC",
      "variant_id": null,
      "latitude": 32.72793,
      "longitude": -117.15529,
      "address": "271 Catalina Boulevard, San Diego, CA, 92152",
      "wikidata_id": null
    },
    {
      "index": 67,
      "id": 68,
      "short_name": "NIH",
      "long_name": "NIH",
      "variant_id": null,
      "latitude": 35.798461,
      "longitude": -120.753359,
      "address": "Building 38A, Room 8S - 810, Bethesda, MD, 20209",
      "wikidata_id": null
    },
    {
      "index": 68,
      "id": 69,
      "short_name": "NOAA",
      "long_name": "NOAA",
      "variant_id": null,
      "latitude": 39.992076,
      "longitude": -105.265,
      "address": "325 Broadway, Boulder, CO, 80302",
      "wikidata_id": null
    },
    {
      "index": 69,
      "id": 70,
      "short_name": "NORSAR",
      "long_name": "NORSAR",
      "variant_id": null,
      "latitude": 59.97375,
      "longitude": 11.04773,
      "address": "P.O. Box 51, 2007, Kjeller, NORWAY",
      "wikidata_id": "Q1037544"
    },
    {
      "index": 70,
      "id": 71,
      "short_name": "NOSC",
      "long_name": "NOSC",
      "variant_id": null,
      "latitude": 32.72793,
      "longitude": -117.15529,
      "address": "271 Catalina Boulevard, San Diego, CA, 92152",
      "wikidata_id": null
    },
    {
      "index": 71,
      "id": 72,
      "short_name": "NPS",
      "long_name": "NPS",
      "variant_id": null,
      "latitude": 34.048171,
      "longitude": -118.132541,
      "address": "Monterey, CA, 93940",
      "wikidata_id": null
    },
    {
      "index": 72,
      "id": 73,
      "short_name": "NRL",
      "long_name": "NRL",
      "variant_id": null,
      "latitude": 38.82652,
      "longitude": -77.01712,
      "address": "Washington, D.C, 20375",
      "wikidata_id": null
    },
    {
      "index": 73,
      "id": 74,
      "short_name": "NSA",
      "long_name": "NSA",
      "variant_id": null,
      "latitude": 37.908565,
      "longitude": -86.135254,
      "address": "Fort George G. Meade",
      "wikidata_id": null
    },
    {
      "index": 74,
      "id": 75,
      "short_name": "NSWC",
      "long_name": "NSWC",
      "variant_id": null,
      "latitude": 38.348399,
      "longitude": -77.061913,
      "address": "Dahlgren, VA, 22448",
      "wikidata_id": null
    },
    {
      "index": 75,
      "id": 76,
      "short_name": "NUC",
      "long_name": "NUC",
      "variant_id": null,
      "latitude": 32.72793,
      "longitude": -117.15529,
      "address": "San Diego, CA, 92132",
      "wikidata_id": null
    },
    {
      "index": 76,
      "id": 77,
      "short_name": "NUSC",
      "long_name": "NUSC",
      "variant_id": null,
      "latitude": 41.359829,
      "longitude": -72.105462,
      "address": "New London, CT, 6320",
      "wikidata_id": null
    },
    {
      "index": 77,
      "id": 78,
      "short_name": "NYU",
      "long_name": "NYU",
      "variant_id": null,
      "latitude": 40.728663,
      "longitude": -73.99569,
      "address": "251 Mercer Street, New York, NY, 10012",
      "wikidata_id": null
    },
    {
      "index": 78,
      "id": 79,
      "short_name": "PENTAGON",
      "long_name": "PENTAGON",
      "variant_id": null,
      "latitude": 38.82652,
      "longitude": -77.01712,
      "address": "The Pentagon, Washington, D. C, 20330",
      "wikidata_id": null
    },
    {
      "index": 79,
      "id": 80,
      "short_name": "PURDUE",
      "long_name": "PURDUE",
      "variant_id": null,
      "latitude": 40.460621,
      "longitude": -86.915627,
      "address": "West Lafayette, IN, 47907",
      "wikidata_id": null
    },
    {
      "index": 80,
      "id": 81,
      "short_name": "RADC",
      "long_name": "RADC",
      "variant_id": null,
      "latitude": 43.408777,
      "longitude": -74.871618,
      "address": "Griffiss Air Force Base, NY, 13441",
      "wikidata_id": "Q14707242"
    },
    {
      "index": 81,
      "id": 82,
      "short_name": "RAND",
      "long_name": "RAND",
      "variant_id": null,
      "latitude": 34.021711,
      "longitude": -118.479052,
      "address": "1700 Main Street, Santa Monica, CA, 90406",
      "wikidata_id": "Q861141"
    },
    {
      "index": 82,
      "id": 83,
      "short_name": "RCC",
      "long_name": "RCC",
      "variant_id": null,
      "latitude": 34.021711,
      "longitude": -118.479052,
      "address": "1700 Main Street, Santa Monica, CA, 90406",
      "wikidata_id": null
    },
    {
      "index": 83,
      "id": 84,
      "short_name": "RCC 49",
      "long_name": "RCC 49",
      "variant_id": null,
      "latitude": 34.021711,
      "longitude": -118.479052,
      "address": "1700 Main Street, Santa Monica, CA, 90406",
      "wikidata_id": null
    },
    {
      "index": 84,
      "id": 85,
      "short_name": "RCC 5",
      "long_name": "RCC 5",
      "variant_id": null,
      "latitude": 34.021711,
      "longitude": -118.479052,
      "address": "1700 Main Street, Santa Monica, CA, 90406",
      "wikidata_id": null
    },
    {
      "index": 85,
      "id": 86,
      "short_name": "RCC 71",
      "long_name": "RCC 71",
      "variant_id": null,
      "latitude": 34.021711,
      "longitude": -118.479052,
      "address": "1700 Main Street, Santa Monica, CA, 90406",
      "wikidata_id": null
    },
    {
      "index": 86,
      "id": 87,
      "short_name": "RML",
      "long_name": "RML",
      "variant_id": null,
      "latitude": 28.246109,
      "longitude": -80.629046,
      "address": "Florida, 32925",
      "wikidata_id": null
    },
    {
      "index": 87,
      "id": 88,
      "short_name": "ROBINS",
      "long_name": "ROBINS",
      "variant_id": null,
      "latitude": 32.60911,
      "longitude": -83.58444,
      "address": "Robins Air Force Base, GA, 31098",
      "wikidata_id": null
    },
    {
      "index": 88,
      "id": 89,
      "short_name": "RUTGERS",
      "long_name": "RUTGERS",
      "variant_id": null,
      "latitude": 41.374028,
      "longitude": 2.117112,
      "address": "Hill Center, Busch Campus, New Brunswick, NJ, 08903",
      "wikidata_id": "Q499451"
    },
    {
      "index": 89,
      "id": 90,
      "short_name": "S1LAB",
      "long_name": "S1LAB",
      "variant_id": null,
      "latitude": 37.6781,
      "longitude": -121.784928,
      "address": "P.O. Box 808, Livermore, CA, 94550",
      "wikidata_id": null
    },
    {
      "index": 90,
      "id": 91,
      "short_name": "SAC",
      "long_name": "SAC",
      "variant_id": null,
      "latitude": 41.12024,
      "longitude": -95.92095,
      "address": "Offutt Air Force Base, NE, 68113",
      "wikidata_id": null
    },
    {
      "index": 91,
      "id": 92,
      "short_name": "SANDIA",
      "long_name": "SANDIA",
      "variant_id": null,
      "latitude": 35.128683,
      "longitude": -106.579128,
      "address": "Albuquerque, NM, 87185",
      "wikidata_id": null
    },
    {
      "index": 92,
      "id": 93,
      "short_name": "SCOTT",
      "long_name": "SCOTT",
      "variant_id": null,
      "latitude": 38.542964,
      "longitude": -89.852114,
      "address": "Scott AFB, IL, 62225",
      "wikidata_id": null
    },
    {
      "index": 93,
      "id": 94,
      "short_name": "SCRL",
      "long_name": "SCRL",
      "variant_id": null,
      "latitude": 34.410666,
      "longitude": -119.708921,
      "address": "800A Miramonte Drive, Santa Barbara, CA, 93109",
      "wikidata_id": null
    },
    {
      "index": 94,
      "id": 95,
      "short_name": "SDAC",
      "long_name": "SDAC",
      "variant_id": null,
      "latitude": 38.80484,
      "longitude": -77.04692,
      "address": "P.O. Box 334, Alexandria, VA, 22313",
      "wikidata_id": null
    },
    {
      "index": 95,
      "id": 96,
      "short_name": "SDC",
      "long_name": "SDC",
      "variant_id": null,
      "latitude": 34.021711,
      "longitude": -118.479052,
      "address": "2500 Colorado Avenue, Santa Monica, CA, 90406",
      "wikidata_id": "Q7663644"
    },
    {
      "index": 96,
      "id": 97,
      "short_name": "SRI",
      "long_name": "SRI",
      "variant_id": null,
      "latitude": 37.456605,
      "longitude": -122.174686,
      "address": "333 Ravenswood Avenue, Menlo Park, CA, 94025",
      "wikidata_id": "Q604924"
    },
    {
      "index": 97,
      "id": 98,
      "short_name": "SRI 2",
      "long_name": "SRI 2",
      "variant_id": null,
      "latitude": 37.456605,
      "longitude": -122.174686,
      "address": "333 Ravenswood Avenue, Menlo Park, CA, 94025",
      "wikidata_id": null
    },
    {
      "index": 98,
      "id": 99,
      "short_name": "SRI 51",
      "long_name": "SRI 51",
      "variant_id": null,
      "latitude": 37.456605,
      "longitude": -122.174686,
      "address": "333 Ravenswood Avenue, Menlo Park, CA, 94025",
      "wikidata_id": null
    },
    {
      "index": 99,
      "id": 100,
      "short_name": "STANFORD",
      "long_name": "STANFORD",
      "variant_id": null,
      "latitude": 37.425888,
      "longitude": -122.165288,
      "address": "Stanford, CA, 94305",
      "wikidata_id": "Q41506"
    },
    {
      "index": 100,
      "id": 101,
      "short_name": "STLA",
      "long_name": "STLA",
      "variant_id": null,
      "latitude": 38.691408,
      "longitude": -90.267091,
      "address": "4300 Goodfellow Boulevard, St. Louis, MO, 63120",
      "wikidata_id": null
    },
    {
      "index": 101,
      "id": 102,
      "short_name": "SUMEX",
      "long_name": "SUMEX",
      "variant_id": null,
      "latitude": 37.425888,
      "longitude": -122.165288,
      "address": "Stanford, CA, 94305",
      "wikidata_id": null
    },
    {
      "index": 102,
      "id": 103,
      "short_name": "TEXAS",
      "long_name": "TEXAS",
      "variant_id": null,
      "latitude": 30.282173,
      "longitude": -97.731003,
      "address": "Austin, TX, 78712",
      "wikidata_id": null
    },
    {
      "index": 103,
      "id": 104,
      "short_name": "TINKER",
      "long_name": "TINKER",
      "variant_id": null,
      "latitude": 35.393761,
      "longitude": -97.602513,
      "address": "S Air Depot Blvd, Oklahoma City, OK, 73145",
      "wikidata_id": "Q1999664"
    },
    {
      "index": 104,
      "id": 105,
      "short_name": "TSARCOM",
      "long_name": "TSARCOM",
      "variant_id": null,
      "latitude": 38.691408,
      "longitude": -90.267091,
      "address": "4300 Goodfellow Boulevard, St. Louis, MO, 63120",
      "wikidata_id": null
    },
    {
      "index": 105,
      "id": 106,
      "short_name": "TYMSHARE",
      "long_name": "TYMSHARE",
      "variant_id": null,
      "latitude": 37.332919,
      "longitude": -122.035451,
      "address": "20705 Valley Green Drive, Cupertino, CA, 95014",
      "wikidata_id": "Q7860427"
    },
    {
      "index": 106,
      "id": 107,
      "short_name": "UCLA",
      "long_name": "UCLA",
      "variant_id": null,
      "latitude": 34.068788,
      "longitude": -118.443006,
      "address": "3532 Boelter Hall, Los Angeles, CA, 90024",
      "wikidata_id": "Q174710"
    },
    {
      "index": 107,
      "id": 108,
      "short_name": "UCSB",
      "long_name": "UCSB",
      "variant_id": null,
      "latitude": 34.389656,
      "longitude": -119.702652,
      "address": "Santa Barbara, CA, 93106",
      "wikidata_id": "Q263064"
    },
    {
      "index": 108,
      "id": 109,
      "short_name": "UCSD",
      "long_name": "UCSD",
      "variant_id": null,
      "latitude": 36.531544,
      "longitude": -119.586168,
      "address": "La Jolla, CA, 90037",
      "wikidata_id": "Q622664"
    },
    {
      "index": 109,
      "id": 110,
      "short_name": "UDEL",
      "long_name": "UDEL",
      "variant_id": null,
      "latitude": 39.68372,
      "longitude": -75.74966,
      "address": "Newark, DE, 19711",
      "wikidata_id": null
    },
    {
      "index": 110,
      "id": 111,
      "short_name": "USC",
      "long_name": "USC",
      "variant_id": null,
      "latitude": 34.05513,
      "longitude": -118.25703,
      "address": "Los Angeles, CA, 90007",
      "wikidata_id": "Q4614"
    },
    {
      "index": 111,
      "id": 112,
      "short_name": "USC-I",
      "long_name": "USC-I",
      "variant_id": null,
      "latitude": 33.975996,
      "longitude": -118.448356,
      "address": "4676 Admiralty Way, Marina Del Rey, CA, 90291",
      "wikidata_id": null
    },
    {
      "index": 112,
      "id": 113,
      "short_name": "USC-ISI",
      "long_name": "USC-ISI",
      "variant_id": null,
      "latitude": 33.975996,
      "longitude": -118.448356,
      "address": "4676 Admiralty Way, Marina Del Rey, CA, 90291",
      "wikidata_id": null
    },
    {
      "index": 113,
      "id": 114,
      "short_name": "USGS 1",
      "long_name": "USGS 1",
      "variant_id": null,
      "latitude": 38.946704,
      "longitude": -77.345382,
      "address": "Reston, VA, 22092",
      "wikidata_id": null
    },
    {
      "index": 114,
      "id": 115,
      "short_name": "USGS 2",
      "long_name": "USGS 2",
      "variant_id": null,
      "latitude": 39.740959,
      "longitude": -104.985798,
      "address": "P.O. Box 25046, Denver, CO, 80225",
      "wikidata_id": null
    },
    {
      "index": 115,
      "id": 116,
      "short_name": "USGS 3",
      "long_name": "USGS 3",
      "variant_id": null,
      "latitude": 37.456398,
      "longitude": -122.171259,
      "address": "345 Middlefield Road, Menlo Park, CA, 94025",
      "wikidata_id": null
    },
    {
      "index": 116,
      "id": 117,
      "short_name": "UTAH",
      "long_name": "UTAH",
      "variant_id": null,
      "latitude": 40.765074,
      "longitude": -111.841488,
      "address": "Salt Lake City, UT, 84112",
      "wikidata_id": "Q168515"
    },
    {
      "index": 117,
      "id": 118,
      "short_name": "UWASH",
      "long_name": "UWASH",
      "variant_id": null,
      "latitude": 47.673455,
      "longitude": -122.331537,
      "address": "Seattle, WA, 98195",
      "wikidata_id": null
    },
    {
      "index": 118,
      "id": 119,
      "short_name": "UWISC",
      "long_name": "UWISC",
      "variant_id": null,
      "latitude": 43.071427,
      "longitude": -89.406505,
      "address": "1210 W. Dayton Street, Madison, WI, 53706",
      "wikidata_id": null
    },
    {
      "index": 119,
      "id": 120,
      "short_name": "WPAFB",
      "long_name": "WPAFB",
      "variant_id": null,
      "latitude": 39.804598,
      "longitude": -84.037405,
      "address": "Wright-Patterson Air Force Base, OH, 45433",
      "wikidata_id": "Q730187"
    },
    {
      "index": 120,
      "id": 121,
      "short_name": "WSMR",
      "long_name": "WSMR",
      "variant_id": null,
      "latitude": 32.462947,
      "longitude": -106.486158,
      "address": "New Mexico 88002",
      "wikidata_id": null
    },
    {
      "index": 121,
      "id": 122,
      "short_name": "XEROX",
      "long_name": "XEROX",
      "variant_id": null,
      "latitude": 37.402723,
      "longitude": -122.148613,
      "address": "3333 Coyote Hill Road, Palo Alto, CA, 94304",
      "wikidata_id": "Q750428"
    },
    {
      "index": 122,
      "id": 123,
      "short_name": "YUMA",
      "long_name": "YUMA",
      "variant_id": null,
      "latitude": 32.553325,
      "longitude": -114.510731,
      "address": "Yuma, AZ, 85364",
      "wikidata_id": null
    }
  ]
}
